{
  "tents" : [

    {
      "title": "PartyPark",
      "position": {
        "lat": 52.74779720746235,
        "lon": 8.291866502287084
      },
      "minZoom": "19",
      "maxZoom": "22",
      "labels": [
        "tent"
      ],
      "tags": [
        "Bier",
        "Zelt"
      ]
    },
    {
      "title": "Beckmann",
      "position": {
        "lat": 52.74825172757923,
        "lon": 8.293445807449357
      },
      "minZoom": "19",
      "maxZoom": "22",
      "labels": [
        "tent"
      ],
      "tags": [
        "Bier",
        "Zelt"
      ]
    },
    {
      "title": "Blömer",
      "position": {
        "lat": 52.74776149516745,
        "lon": 8.293357323458942
      },
      "minZoom": "19",
      "maxZoom": "22",
      "labels": [
        "tent"
      ],
      "tags": [
        "Zelt",
        "Bier"
      ]
    },
    {
      "title": "Hogeback",
      "position": {
        "lat": 52.74810400854125,
        "lon": 8.294260932694401
      },
      "minZoom": "19",
      "maxZoom": "22",
      "labels": [
        "tent"
      ],
      "tags": [
        "Zelt",
        "Bier"
      ]
    },
    {
      "title": "Stratmann",
      "position": {
        "lat": 52.748594240953025,
        "lon": 8.295070695273361
      },
      "minZoom": "19",
      "maxZoom": "22",
      "labels": [
        "tent"
      ],
      "tags": [
        "Zelt",
        "Bier",
        "Lohner Zelt"
      ]
    },
    {
      "title": "Kaponier",
      "position": {
        "lat": 52.7480504400989,
        "lon": 8.295212805924635
      },
      "minZoom": "19",
      "maxZoom": "22",
      "labels": [
        "tent"
      ],
      "tags": [
        "Zelt",
        "Bier"
      ]
    },
    {
      "title": "ElmendorffBurg",
      "position": {
        "lat": 52.74781344032367,
        "lon": 8.295073376606403
      },
      "minZoom": "19",
      "maxZoom": "22",
      "labels": [
        "tent"
      ],
      "tags": [
        "Zelt",
        "Bier"
      ]
    },
    {
      "title": "Grieshop",
      "position": {
        "lat": 52.748373474039106,
        "lon": 8.295700808538445
      },
      "minZoom": "19",
      "maxZoom": "22",
      "labels": [
        "tent"
      ],
      "tags": [
        "Zelt",
        "Bier"
      ]
    },
    {
      "title": "Schäfers",
      "position": {
        "lat": 52.7480504400989,
        "lon": 8.295738347201045
      },
      "minZoom": "19",
      "maxZoom": "22",
      "labels": [
        "tent"
      ],
      "tags": [
        "Zelt",
        "Bier"
      ]
    },
    {
      "title": "Alkoholfreies Zelt",
      "position": {
        "lat": 52.746980694538095,
        "lon": 8.295177948595077
      },
      "minZoom": "19",
      "maxZoom": "22",
      "labels": [
        "tent"
      ],
      "tags": [
        "Zelt"
      ]
    },
    {
      "title": "Brackmann",
      "position": {
        "lat": 52.747329701056415,
        "lon": 8.29596357917665
      },
      "minZoom": "19",
      "maxZoom": "22",
      "labels": [
        "tent"
      ],
      "tags": [
        "Zelt",
        "Bier"
      ]
    },
    {
      "title": "Anton Linnemann",
      "position": {
        "lat": 52.747810193751405,
        "lon": 8.295966260509694
      },
      "minZoom": "19",
      "maxZoom": "22",
      "labels": [
        "beer"
      ],
      "tags": [
        "Bier"
      ]
    },
    {
      "title": "Die Flotte",
      "position": {
        "lat": 52.74767059114408,
        "lon": 8.296743847092136
      },
      "minZoom": "19",
      "maxZoom": "22",
      "labels": [
        "tent"
      ],
      "tags": [
        "Zelt",
        "Bier"
      ]
    },
    {
      "title": "Jansen",
      "position": {
        "lat": 52.74736216677905,
        "lon": 8.29673848442605
      },
      "minZoom": "19",
      "maxZoom": "22",
      "labels": [
        "tent"
      ],
      "tags": [
        "Zelt",
        "Bier"
      ]
    },
    {
      "title": "Overmeyer",
      "position": {
        "lat": 52.74784752933243,
        "lon": 8.29656151644522
      },
      "minZoom": "19",
      "maxZoom": "22",
      "labels": [
        "tent"
      ],
      "tags": [
        "Zelt",
        "Bier"
      ]
    },
    {
      "title": "Die 2 Dinklager",
      "position": {
        "lat": 52.74698556439649,
        "lon": 8.296910089740797
      },
      "minZoom": "19",
      "maxZoom": "22",
      "labels": [
        "tent"
      ],
      "tags": [
        "Zelt",
        "Bier"
      ]
    },
    {
      "title": "Kühlings Niedersachsenhalle",
      "position": {
        "lat": 52.74819328927849,
        "lon": 8.296987848399041
      },
      "minZoom": "19",
      "maxZoom": "22",
      "labels": [
        "tent"
      ],
      "tags": [
        "Zelt",
        "Bier"
      ]
    },
    {
      "title": "Pickers",
      "position": {
        "lat": 52.74708620813666,
        "lon": 8.296014524504466
      },
      "minZoom": "19",
      "maxZoom": "22",
      "labels": [
        "tent"
      ],
      "tags": [
        "Zelt",
        "Bier",
        "Lutten Zelt"
      ]
    },
    {
      "title": "Stierbräu",
      "position": {
        "lat": 52.74632164036862,
        "lon": 8.296017205837508
      },
      "minZoom": "19",
      "maxZoom": "22",
      "labels": [
        "tent"
      ],
      "tags": [
        "Zelt",
        "Bier"
      ]
    },
    {
      "title": "Wein Ellendorf",
      "position": {
        "lat": 52.74663168801978,
        "lon": 8.297781522979744
      },
      "minZoom": "19",
      "maxZoom": "22",
      "labels": [
        "tent"
      ],
      "tags": [
        "Zelt",
        "Wein",
        "Karaoke"
      ]
    },
    {
      "title": "Wunderbar",
      "position": {
        "lat": 52.74755209125646,
        "lon": 8.297770797647571
      },
      "minZoom": "19",
      "maxZoom": "22",
      "labels": [
        "tent"
      ],
      "tags": [
        "Zelt",
        "Bier",
        "Wuba"
      ]
    },
    {
      "title": "Borgerding",
      "position": {
        "lat": 52.748347501461,
        "lon": 8.29423143803093
      },
      "minZoom": "19",
      "maxZoom": "22",
      "labels": [
        "tent"
      ],
      "tags": [
        "Zelt",
        "Bier"
      ]
    },
    {
      "title": "Trumpf",
      "position": {
        "lat": 52.747840115583536,
        "lon": 8.296782372630203
      },
      "minZoom": "19",
      "maxZoom": "22",
      "labels": [
        "food",
        "beer"
      ],
      "tags": [
        "Bier",
        "Pommes",
        "Bratwurst",
        "Burger"
      ]
    },
    {
      "title": "Stratmann",
      "position": {
        "lat": 52.74808371801214,
        "lon": 8.29651412246677
      },
      "minZoom": "19",
      "maxZoom": "22",
      "labels": [
        "tent"
      ],
      "tags": [
        "Zelt",
        "Bier",
        "Café"
      ]
    },
    {
      "title": "Winter",
      "position": {
        "lat": 52.74840202518552,
        "lon": 8.294740988886467
      },
      "minZoom": "19",
      "maxZoom": "22",
      "labels": [
        "beer"
      ],
      "tags": [
        "Bier",
        "Cocktails"
      ]
    },
    {
      "title": "Meyer",
      "position": {
        "lat": 52.74839715313694,
        "lon": 8.292737160165613
      },
      "minZoom": "19",
      "maxZoom": "22",
      "labels": [
        "beer"
      ],
      "tags": [
        "Bier"
      ]
    },
    {
      "title": "Browatzki",
      "position": {
        "lat": 52.7480902140769,
        "lon": 8.292168469819133
      },
      "minZoom": "19",
      "maxZoom": "22",
      "labels": [
        "beer"
      ],
      "tags": [
        "Bier"
      ]
    },
    {
      "title": "Landwehr",
      "position": {
        "lat": 52.74803583052371,
        "lon": 8.293445807449357
      },
      "minZoom": "19",
      "maxZoom": "22",
      "labels": [
        "food",
        "beer"
      ],
      "tags": [
        "Bier",
        "Pommes",
        "Bratwurst",
        "Steak"
      ]
    },
    {
      "title": "Da Enzo",
      "position": {
        "lat": 52.74767771396447,
        "lon": 8.29444591370669
      },
      "minZoom": "19",
      "maxZoom": "22",
      "labels": [
        "beer",
        "food"
      ],
      "tags": [
        "Bier"
      ]
    },
    {
      "title": "Bokern",
      "position": {
        "lat": 52.74733667056442,
        "lon": 8.296355854870342
      },
      "minZoom": "19",
      "maxZoom": "22",
      "labels": [
        "food",
        "beer"
      ],
      "tags": [
        "Bier",
        "Pommes",
        "Bratwurst"
      ]
    },
    {
      "title": "Hanse Kogge",
      "position": {
        "lat": 52.747380519001574,
        "lon": 8.297302777947266
      },
      "minZoom": "19",
      "maxZoom": "22",
      "labels": [
        "tent"
      ],
      "tags": [
        "Zelt",
        "Bier"
      ]
    },
    {
      "title": "Wittler",
      "position": {
        "lat": 52.74664808769957,
        "lon": 8.29754688559599
      },
      "minZoom": "19",
      "maxZoom": "22",
      "labels": [
        "beer"
      ],
      "tags": [
        "Bier"
      ]
    },
    {
      "title": "Banane",
      "position": {
        "lat": 52.74701511535867,
        "lon": 8.295677181956853
      },
      "minZoom": "19",
      "maxZoom": "22",
      "labels": [
        "tent"
      ],
      "tags": [
        "Bier",
        "Zelt"
      ]
    },
    {
      "title": "Fischer",
      "position": {
        "lat": 52.74776216280639,
        "lon": 8.295771069514055
      },
      "minZoom": "19",
      "maxZoom": "22",
      "labels": [
        "tent"
      ],
      "tags": [
        "Bier",
        "Zelt"
      ]
    },
    {
      "title": "Twistringer Zelt",
      "position": {
        "lat": 52.74746983989206,
        "lon": 8.295449169317934
      },
      "minZoom": "19",
      "maxZoom": "22",
      "labels": [
        "tent"
      ],
      "tags": [
        "Bier",
        "Zelt"
      ]
    },
    {
      "title": "Ostermann",
      "position": {
        "lat": 52.74797739222297,
        "lon": 8.295019749945546
      },
      "minZoom": "19",
      "maxZoom": "22",
      "labels": [
        "food",
        "beer"
      ],
      "tags": [
        "Bratwurst",
        "Pommes",
        "Bier"
      ]
    },
    {
      "title": "Benecke",
      "position": {
        "lat": 52.7482095221398,
        "lon": 8.2956418192115
      },
      "minZoom": "19",
      "maxZoom": "22",
      "labels": [
        "food",
        "beer"
      ],
      "tags": [
        "Spießbraten",
        "Bier"
      ]
    },
    {
      "title": "Feldkamp",
      "position": {
        "lat": 52.74850009035738,
        "lon": 8.296070832498366
      },
      "minZoom": "19",
      "maxZoom": "22",
      "labels": [
        "food",
        "beer"
      ],
      "tags": [
        "Bratwurst",
        "Bier"
      ]
    },
    {
      "title": "Schinderhannes",
      "position": {
        "lat": 52.746949852101594,
        "lon": 8.296033293835766
      },
      "minZoom": "19",
      "maxZoom": "22",
      "labels": [
        "food",
        "beer"
      ],
      "tags": [
        "Spießbraten",
        "Bier"
      ]
    },
    {
      "title": "Feldkamp",
      "position": {
        "lat": 52.74665766059788,
        "lon": 8.297382004356349
      },
      "minZoom": "19",
      "maxZoom": "22",
      "labels": [
        "food"
      ],
      "tags": [
        "Bratwurst"
      ]
    },
    {
      "title": "Heitmann",
      "position": {
        "lat": 52.74801063728356,
        "lon": 8.293802113314447
      },
      "minZoom": "19",
      "maxZoom": "22",
      "labels": [
        "beer"
      ],
      "tags": [
        "Bier",
        "Bierstube"
      ]
    },
    {
      "title": "Eurocafè",
      "position": {
        "lat": 52.74661545515846,
        "lon": 8.296432812459159
      },
      "minZoom": "19",
      "maxZoom": "22",
      "labels": [
        "beer"
      ],
      "tags": [
        "Bier"
      ]
    },
    {
      "title": "Treffpunkt",
      "position": {
        "lat": 52.74672421532929,
        "lon": 8.297100464386844
      },
      "minZoom": "19",
      "maxZoom": "22",
      "labels": [
        "tent"
      ],
      "tags": [
        "Zelt",
        "Bier"
      ]
    },
    {
      "title": "Wittler Wein",
      "position": {
        "lat": 52.74656513328838,
        "lon": 8.29805501895012
      },
      "minZoom": "19",
      "maxZoom": "22",
      "labels": [
        "beer"
      ],
      "tags": [
        "Wein"
      ]
    },
    {
      "title": "Büssing",
      "position": {
        "lat": 52.7439305398966,
        "lon": 8.299181178828142
      },
      "minZoom": "19",
      "maxZoom": "22",
      "labels": [
        "beer"
      ],
      "tags": [
        "Bier"
      ]
    }
  ]
}